[  
    {  
        "address": "Bảo tàng Mỹ thuật TP.HCM",  
        "name": "Bảo tàng Mỹ thuật TP.HCM",  
        "latitude": 10.769893229296022,  
        "longitude": 106.69926378493048   
    },  
    {  
        "address": "Bảo tàng Thành phố Hồ Chí Minh",  
        "name": "Bảo tàng Thành phố Hồ Chí Minh",  
        "latitude": 10.775978692274064,  
        "longitude": 106.69961645071125   
    },  
    {  
        "address": "Lăng Tả quân Lê Văn Duyệt (Lăng Ông - Bà Chiểu)",  
        "name": "Lăng Tả quân Lê Văn Duyệt (Lăng Ông - Bà Chiểu)",  
        "latitude": 10.802130314865222,  
        "longitude": 106.69707050507084   
    },  
    {  
        "address": "CHÙA NGỌC HOÀNG",  
        "name": "CHÙA NGỌC HOÀNG",  
        "latitude": 10.791989934733742,  
        "longitude": 106.69818480764916   
    },  
    {  
        "address": "Chùa Bà Thiên Hậu",  
        "name": "Chùa Bà Thiên Hậu",  
        "latitude": 10.824918365580874,  
        "longitude": 106.68528986651943   
    },  
    {  
        "address": "Ủy ban Nhân dân Thành phố Hồ Chí Minh",  
        "name": "Ủy ban Nhân dân Thành phố Hồ Chí Minh",  
        "latitude": 10.776601242663828,  
        "longitude": 106.70090551452533   
    },  
    {  
        "address": "Bưu điện Thành phố Hồ Chí Minh",  
        "name": "Bưu điện Thành phố Hồ Chí Minh",  
        "latitude": 10.779878166040378,  
        "longitude": 106.69995864731223   
    },  
    {  
        "address": "Nhà thờ Đức Bà Sài Gòn",  
        "name": "Nhà thờ Đức Bà Sài Gòn",  
        "latitude": 10.779742129400322,  
        "longitude": 106.69903701880996   
    },  
    {  
        "address": "Chợ Bình Tây",  
        "name": "Chợ Bình Tây",  
        "latitude": 10.749655213007767,  
        "longitude": 106.65102842695318   
    },  
    {  
        "address": "Chợ Bến Thành",  
        "name": "Chợ Bến Thành",  
        "latitude": 10.772488517534407,  
        "longitude": 106.69805791035111   
    },  
    {  
        "address": "Bến Nhà Rồng - Bảo Tàng Hồ Chí Minh (Chi nhánh TP.HCM)",  
        "name": "Bến Nhà Rồng - Bảo Tàng Hồ Chí Minh",  
        "latitude": 10.76823090834184,  
        "longitude": 106.70680404487891   
    },  
    {  
        "address": "Thảo Cầm Viên Sài Gòn",  
        "name": "Thảo Cầm Viên Sài Gòn",  
        "latitude": 10.78754466508065,  
        "longitude": 106.70527963295666   
    },  
    {  
        "address": "Dinh Độc Lập",  
        "name": "Dinh Độc Lập",  
        "latitude": 10.77696289643182,  
        "longitude": 106.69535990362665   
    }  
]